{
  "items": [
    {
      "id": 1,
      "placeName": "N서울타워",
      "category": 1,
      "address": "서울특별시 용산구 남산공원길 105",
      "description": "서울의 중심 남산 위에 위치한 서울타워는 야경 명소로 유명합니다.",
      "openHours": "매일 10:00 - 23:00",
      "contact": "+82 2-3455-9277",
      "reviews": [
        {
          "rating": 5,
          "comment": "서울이 한눈에 보이는 곳이에요!",
          "author": "김민수",
          "date": "2025-04-01"
        }
      ],
      "likes": 1542,
      "images": ["https://media.triple.guide/triple-cms/c_limit,f_auto,h_1024,w_1024/aa5a2b0c-6c55-4353-8837-7fbc84e377bd.jpeg", ""]
    },
    {
      "id": 2,
      "placeName": "경복궁",
      "category": 1,
      "address": "서울특별시 종로구 사직로 161",
      "description": "조선시대의 대표 궁궐, 한국 전통 건축을 경험할 수 있습니다.",
      "openHours": "매일 09:00 - 18:00",
      "contact": "+82 2-3700-3900",
      "reviews": [
        {
          "rating": 5,
          "comment": "한복 입고 가면 입장료가 무료였어요!",
          "author": "이소영",
          "date": "2025-04-02"
        }
      ],
      "likes": 2031,
      "images": ["https://www.bulkwang.co.kr/news/photo/202110/36856_15936_1849.jpg"]
    },
    {
      "id": 3,
      "placeName": "롯데월드타워",
      "category": 1,
      "address": "서울특별시 송파구 올림픽로 300",
      "description": "123층의 초고층 빌딩, 쇼핑, 식사, 전망대까지 한 번에!",
      "openHours": "매일 10:00 - 22:00",
      "contact": "+82 2-3213-5000",
      "reviews": [
        {
          "rating": 4,
          "comment": "야경이 정말 멋있어요!",
          "author": "박지훈",
          "date": "2025-04-05"
        }
      ],
      "likes": 1320,
      "images": ["", ""]
    },
    {
      "id": 4,
      "placeName": "광장시장",
      "category": 2,
      "address": "서울특별시 종로구 창경궁로 88",
      "description": "서울 전통 재래시장에서 맛보는 먹거리 천국!",
      "openHours": "매일 09:00 - 23:00",
      "contact": "+82 2-2267-0291",
      "reviews": [
        {
          "rating": 5,
          "comment": "빈대떡 진짜 맛있었어요!",
          "author": "김하늘",
          "date": "2025-04-08"
        }
      ],
      "likes": 940,
      "images": [""]
    },
    {
      "id": 5,
      "placeName": "남대문시장",
      "category": 2,
      "address": "서울특별시 중구 남대문시장4길 21",
      "description": "서울에서 가장 오래된 전통 시장, 쇼핑과 먹거리가 가득!",
      "openHours": "매일 10:00 - 20:00",
      "contact": "+82 2-753-2805",
      "reviews": [
        {
          "rating": 4,
          "comment": "관광객도 많고 활기찬 분위기!",
          "author": "박지은",
          "date": "2025-04-10"
        }
      ],
      "likes": 1050,
      "images": [""]
    },
    {
      "id": 6,
      "placeName": "경포대",
      "category": 1,
      "address": "강원특별자치도 강릉시 경포로 365",
      "description": "경포해변을 내려다보는 아름다운 누각, 경포호수와 함께하는 뷰포인트.",
      "openHours": "매일 09:00 - 19:00",
      "contact": "+82 33-640-5126",
      "reviews": [
        {
          "rating": 5,
          "comment": "호수랑 바다 동시에 볼 수 있어요!",
          "author": "강지훈",
          "date": "2025-04-12"
        }
      ],
      "likes": 780,
      "images": [""]
    },
    {
      "id": 7,
      "placeName": "주문진수산시장",
      "category": 2,
      "address": "강원특별자치도 강릉시 주문진읍 시장길 38",
      "description": "싱싱한 해산물을 즐길 수 있는 강릉 대표 수산시장!",
      "openHours": "매일 08:00 - 19:00",
      "contact": "+82 33-661-7302",
      "reviews": [
        {
          "rating": 4,
          "comment": "대게 먹으러 갔는데 너무 신선했어요!",
          "author": "최영수",
          "date": "2025-04-13"
        }
      ],
      "likes": 600,
      "images": [""]
    },
    {
      "id": 8,
      "placeName": "설악산국립공원",
      "category": 1,
      "address": "강원특별자치도 속초시 설악산로 833",
      "description": "대한민국을 대표하는 명산, 사계절 아름다운 풍경을 자랑합니다.",
      "openHours": "매일 06:00 - 20:00",
      "contact": "+82 33-636-7700",
      "reviews": [
        {
          "rating": 5,
          "comment": "가을 단풍 시즌은 진짜 최고!",
          "author": "이정우",
          "date": "2025-04-14"
        }
      ],
      "likes": 2000,
      "images": [""]
    },
    {
      "id": 9,
      "placeName": "속초해변",
      "category": 1,
      "address": "강원특별자치도 속초시 해오름로 190",
      "description": "맑고 깨끗한 동해바다를 즐길 수 있는 해수욕장입니다.",
      "openHours": "매일 09:00 - 18:00",
      "contact": "+82 33-639-2114",
      "reviews": [
        {
          "rating": 4,
          "comment": "물이 진짜 맑아요!",
          "author": "박서연",
          "date": "2025-04-15"
        }
      ],
      "likes": 1100,
      "images": [""]
    },
    {
      "id": 10,
      "placeName": "아바이마을",
      "category": 2,
      "address": "강원특별자치도 속초시 청호동 1-1",
      "description": "아바이순대와 해물파전이 유명한 전통적인 북한이주민 마을.",
      "openHours": "매일 10:00 - 20:00",
      "contact": "+82 33-639-2690",
      "reviews": [
        {
          "rating": 5,
          "comment": "아바이순대 꼭 먹어봐야 해요!",
          "author": "송지훈",
          "date": "2025-04-16"
        }
      ],
      "likes": 870,
      "images": [""]
    },
    {
      "id": 11,
      "placeName": "불국사",
      "category": 1,
      "address": "경상북도 경주시 불국로 385",
      "description": "한국 불교를 대표하는 사찰, 세계문화유산에 등재된 아름다운 곳입니다.",
      "openHours": "매일 07:00 - 18:00",
      "contact": "+82 54-746-9913",
      "reviews": [
        {
          "rating": 5,
          "comment": "조용하고 경건한 분위기 최고입니다.",
          "author": "최은지",
          "date": "2025-04-17"
        }
      ],
      "likes": 1700,
      "images": ["https://via.placeholder.com/300x200"]
    },
    {
      "id": 12,
      "placeName": "첨성대",
      "category": 1,
      "address": "경상북도 경주시 인왕동 839-1",
      "description": "동양에서 가장 오래된 천문대, 신라 시대의 대표 유적지입니다.",
      "openHours": "매일 09:00 - 22:00",
      "contact": "+82 54-779-6087",
      "reviews": [
        {
          "rating": 4,
          "comment": "밤에 조명이 켜지면 정말 예뻐요.",
          "author": "홍수진",
          "date": "2025-04-18"
        }
      ],
      "likes": 950,
      "images": ["https://via.placeholder.com/300x200"]
    },
    {
      "id": 13,
      "placeName": "경주 월정교",
      "category": 1,
      "address": "경상북도 경주시 교동 274",
      "description": "고풍스러운 조명이 아름다운 다리, 야경이 특히 유명합니다.",
      "openHours": "매일 09:00 - 22:00",
      "contact": "+82 54-779-6100",
      "reviews": [
        {
          "rating": 5,
          "comment": "야경이 너무 멋져서 감동했어요.",
          "author": "이준호",
          "date": "2025-04-18"
        }
      ],
      "likes": 1300,
      "images": ["https://via.placeholder.com/300x200"]
    },
    {
      "id": 14,
      "placeName": "여수 오동도",
      "category": 1,
      "address": "전라남도 여수시 수정동 산1-11",
      "description": "동백꽃으로 유명한 섬, 겨울에 동백꽃이 만개하는 명소입니다.",
      "openHours": "매일 09:00 - 18:00",
      "contact": "+82 61-659-4672",
      "reviews": [
        {
          "rating": 5,
          "comment": "봄, 겨울에 가면 동백꽃이 장관입니다!",
          "author": "김윤서",
          "date": "2025-04-19"
        }
      ],
      "likes": 1150,
      "images": ["https://via.placeholder.com/300x200"]
    },
    {
      "id": 15,
      "placeName": "여수 해상케이블카",
      "category": 1,
      "address": "전라남도 여수시 돌산읍 돌산로 3600-1",
      "description": "여수 밤바다를 한눈에 감상할 수 있는 케이블카입니다.",
      "openHours": "매일 10:00 - 22:00",
      "contact": "+82 61-664-7301",
      "reviews": [
        {
          "rating": 5,
          "comment": "케이블카 타면서 야경 보는 게 최고!",
          "author": "정호석",
          "date": "2025-04-20"
        }
      ],
      "likes": 1850,
      "images": ["https://via.placeholder.com/300x200"]
    },
    {
      "id": 16,
      "placeName": "여수 낭만포차거리",
      "category": 2,
      "address": "전라남도 여수시 종화동",
      "description": "야경을 보면서 여수 명물 먹거리(꼬막비빔밥, 해산물)를 즐길 수 있는 거리입니다.",
      "openHours": "매일 18:00 - 02:00",
      "contact": "정보 없음",
      "reviews": [
        {
          "rating": 5,
          "comment": "여수 밤바다 감성 제대로!",
          "author": "박서진",
          "date": "2025-04-21"
        }
      ],
      "likes": 900,
      "images": ["https://via.placeholder.com/300x200"]
    },
    {
      "id": 17,
      "placeName": "여수 아쿠아플라넷",
      "category": 1,
      "address": "전라남도 여수시 오동도로 61-11",
      "description": "다양한 해양 생물을 만날 수 있는 대형 아쿠아리움.",
      "openHours": "매일 10:00 - 19:00",
      "contact": "+82 61-660-1111",
      "reviews": [
        {
          "rating": 4,
          "comment": "가족 단위로 놀러 가기 좋아요!",
          "author": "김재윤",
          "date": "2025-04-21"
        }
      ],
      "likes": 1500,
      "images": ["https://via.placeholder.com/300x200"]
    },
    {
      "id": 18,
      "placeName": "여수 이순신광장",
      "category": 1,
      "address": "전라남도 여수시 중앙동",
      "description": "충무공 이순신 장군 동상이 서 있는 역사적 명소.",
      "openHours": "매일 00:00 - 24:00",
      "contact": "정보 없음",
      "reviews": [
        {
          "rating": 4,
          "comment": "광장이 깨끗하고 야경이 예뻐요.",
          "author": "이하늘",
          "date": "2025-04-22"
        }
      ],
      "likes": 770,
      "images": ["https://via.placeholder.com/300x200"]
    },
    {
      "id": 19,
      "placeName": "여수 돌산대교",
      "category": 1,
      "address": "전라남도 여수시 돌산읍",
      "description": "여수시 본섬과 돌산을 연결하는 아름다운 대교, 특히 야경이 유명합니다.",
      "openHours": "매일 00:00 - 24:00",
      "contact": "정보 없음",
      "reviews": [
        {
          "rating": 5,
          "comment": "밤에 조명 켜진 다리 너무 예쁨!",
          "author": "박수연",
          "date": "2025-04-22"
        }
      ],
      "likes": 980,
      "images": ["https://via.placeholder.com/300x200"]
    },
    {
      "id": 20,
      "placeName": "여수 진남관",
      "category": 1,
      "address": "전라남도 여수시 군자동 472",
      "description": "조선시대 수군을 지휘하던 유서 깊은 건물.",
      "openHours": "매일 09:00 - 18:00",
      "contact": "+82 61-659-4616",
      "reviews": [
        {
          "rating": 4,
          "comment": "역사 공부하기 좋은 장소입니다.",
          "author": "정은비",
          "date": "2025-04-23"
        }
      ],
      "likes": 640,
      "images": ["https://via.placeholder.com/300x200"]
    }
  ]
}
